{
  "cities": [
    {
      "cityName": "Lisbon",
      "country": "Portugal",
      "emoji": "ðŸ‡µðŸ‡¹",
      "date": "2027-10-31T15:59:59.138Z",
      "notes": "My favorite city so far!",
      "position": {
        "lat": 38.727881642324164,
        "lng": -9.140900099907554
      },
      "id": "73930385"
    },
    {
      "cityName": "Madrid",
      "country": "Spain",
      "emoji": "ðŸ‡ªðŸ‡¸",
      "date": "2027-07-15T08:22:53.976Z",
      "notes": "",
      "position": {
        "lat": 40.46635901755316,
        "lng": -3.7133789062500004
      },
      "id": "17806751"
    },
    {
      "cityName": "Berlin",
      "country": "Germany",
      "emoji": "ðŸ‡©ðŸ‡ª",
      "date": "2027-02-12T09:24:11.863Z",
      "notes": "Amazing ðŸ˜ƒ",
      "position": {
        "lat": 52.53586782505711,
        "lng": 13.376933665713324
      },
      "id": "98443197"
    },
    {
      "id": "c2e7",
      "cityName": "Borgarnes",
      "country": "Iceland",
      "emoji": "ðŸ‡®ðŸ‡¸",
      "date": "2025-11-10T21:22:55.769Z",
      "notes": "",
      "position": {
        "lat": "64.92354174306499",
        "lng": "-20.017089843750004"
      }
    },
    {
      "id": "de29",
      "cityName": "Waliso",
      "country": "Ethiopia",
      "emoji": "ðŸ‡ªðŸ‡¹",
      "date": "2025-11-10T21:23:11.917Z",
      "notes": "",
      "position": {
        "lat": "8.407168163601076",
        "lng": "38.14453125000001"
      }
    },
    {
      "id": "a71c",
      "cityName": "La Roda",
      "country": "Spain",
      "emoji": "ðŸ‡ªðŸ‡¸",
      "date": "2025-11-10T21:26:51.552Z",
      "notes": "",
      "position": {
        "lat": "39.16414104768742",
        "lng": "-2.3510742187500004"
      }
    },
    {
      "id": "d6df",
      "cityName": "El Bnoud",
      "country": "Algeria",
      "emoji": "ðŸ‡©ðŸ‡¿",
      "date": "2025-11-10T21:27:23.566Z",
      "notes": "yreo",
      "position": {
        "lat": "32.02670629333614",
        "lng": "0.6152343750000001"
      }
    },
    {
      "id": "7a46",
      "cityName": "Sebgag",
      "country": "Algeria",
      "emoji": "ðŸ‡©ðŸ‡¿",
      "date": "2025-11-10T21:34:18.993Z",
      "notes": "fjf",
      "position": {
        "lat": "34.161818161230386",
        "lng": "1.9995117187500002"
      }
    }
  ]
}